[
  {
    "name": "Maki Maki",
    "address": "8109 101 St NW, Edmonton, AB T6E 3Y9",
    "phone": "(780) 438-8298",
    "hours": {
      "sunday": "11am-11pm",
      "monday": "11am-11pm",
      "tuesday": "11am-11pm",
      "wednesday": "11am-11pm",
      "thursday": "11am-11pm",
      "friday": "11am-2pm",
      "saturday": "11am-2pm"
    }
  },
  {
    "name": "Steel Wheels",
    "address": "10307 85 Ave NW, Edmonton, AB T6E 6N7",
    "phone": "(780) 439-9978",
    "hours": {
      "sunday": "6pm-3am",
      "monday": "closed",
      "tuesday": "6pm-3am",
      "wednesday": "6pm-3am",
      "thursday": "6pm-3am",
      "friday": "6pm-3am",
      "saturday": "6pm-3am"
    }
  },
  {
    "name": "Miss Saigon",
    "address": "10355 78 Ave NW, Edmonton, AB T6E 6T2",
    "phone": "(780) 249-2220",
    "hours": {
      "sunday": "11am-12am",
      "monday": "11am-12am",
      "tuesday": "11am-12am",
      "wednesday": "11am-12am",
      "thursday": "11am-12am",
      "friday": "11am-4am",
      "saturday": "11am-4am"
    }
  },
  {
    "name": "Original Joes (Terwillegar)",
    "address": "2323 Rabbit Hill Rd NW, Edmonton, AB T6R 3K8",
    "phone": "(780) 988-5637",
    "hours": {
      "sunday": "11am-12am",
      "monday": "11am-2am",
      "tuesday": "11am-2am",
      "wednesday": "11am-2am",
      "thursday": "11am-2am",
      "friday": "11am-2am",
      "saturday": "11am-2am"
    }
  },
  {
    "name": "Good Buddy",
    "address": "2059 111 St NW, Edmonton, AB T6J 4V9",
    "phone": "(780) 432-6050",
    "hours": {
      "sunday": "11am-11pm",
      "monday": "11am-11pm",
      "tuesday": "11am-11am",
      "wednesday": "11am-12am",
      "thursday": "11am-12am",
      "friday": "11am-12am",
      "saturday": "11am-12am"
    }
  },
  {
    "name": "Dennyâ€™s (Gateway)",
    "address": "3604 Gateway Boulevard, Edmonton, AB T6J 7A9",
    "phone": "(780) 438 3663",
    "hours": "open 24 hours"
  },
  {
    "name": "XIX Nineteen (Terwillegar)*reservation only*",
    "address": "5940 Mullen Way, Edmonton, AB T6R 0R1",
    "phone": "(780) 395-1119",
    "hours": {
      "sunday": "10am-10pm",
      "monday": "3pm-11pm",
      "tuesday": "3pm-11am",
      "wednesday": "3pm-11pm",
      "thursday": "3pm-11pm",
      "friday": "12pm-12am",
      "saturday": "12pm-12am"
    }
  },
  {
    "name": "Izakaya Dorinku",
    "address": "10205 82 Ave NW, Edmonton, AB T6E 3X8",
    "phone": "(780)",
    "hours": {
      "sunday": "11:30am-11:30pm",
      "monday": "11:30am-2pm; 5pm-11:30am",
      "tuesday": "11:30am-2pm; 5pm-11:30am",
      "wednesday": "11:30am-2pm; 5pm-11:30am",
      "thursday": "11:30am-2pm; 5pm-11:30am",
      "friday": "11:30am-2pm; 5pm-12:30am",
      "saturday": "11:30am-12:30pm"
    }
  },
  {
    "name": "Boston Pizza (Jasper Ave)",
    "address": "10620 Jasper Ave, Edmonton, AB T5J 2A4",
    "phone": "(780) 423-2333",
    "hours": {
      "sunday": "11am-12am",
      "monday": "11am-12am",
      "tuesday": "11am-12am",
      "wednesday": "11am-12am",
      "thursday": "11am-12am",
      "friday": "11am-2am",
      "saturday": "11am-2am"
    }
  },
  {
    "name": "Dream Tea (Macewan university)",
    "address": "11242 104 Ave NW, Edmonton, AB T5K 2X4",
    "phone": "(780) 425-8966",
    "hours": {
      "sunday": "11:30am-11pm",
      "monday": "11:30am-11pm",
      "tuesday": "11:30am-11pm",
      "wednesday": "11:30am-11pm",
      "thursday": "11:30am-11pm",
      "friday": "11:30am-12am",
      "saturday": "11:30am-12am"
    }
  }
]
